[
  {
    "ID": 31422,
    "Title": "P-Stockmann / Oulu",
    "AddressLine1": "Kirkkokatu 14",
    "Town": "Oulu Keskus",
    "StateOrProvince": "Pohjois-Pohjanmaa",
    "Postcode": "90100",
    "CountryID": 79,
    "Latitude": 65.01134,
    "Longitude": 25.46974,
    "AccessComments": "",
    "Distance": 0.14606329438440607,
    "DistanceUnit": 2,
    "ConnectionType": "Type2",
    "PowerKW": "22kWh",
    "Price" : 0,
    "Code": "1K52B"
  },
  {
    "ID": 57067,
    "Title": "Kivisydän",
    "AddressLine1": "Hallituskatu 20",
    "Town": "Oulu Keskus",
    "StateOrProvince": "Pohjois-Pohjanmaa",
    "Postcode": "90100",
    "CountryID": 79,
    "Latitude": 65.01227,
    "Longitude": 25.47637,
    "AccessComments": "Kallioparkki Kivisydän",
    "Distance": 0.1961331734920367,
    "DistanceUnit": 2,
    "ConnectionType": "CCS",
    "PowerKW": "50kWh",
    "Price" : 15,
    "Code": "GKJ21"
  },
  {
    "ID": 99987,
    "Title": "Lapland Hotels Oulu",
    "AddressLine1": "Kirkkokatu 3",
    "Town": "Oulu",
    "Postcode": "90100",
    "CountryID": 79,
    "Latitude": 65.015344,
    "Longitude": 25.475991,
    "ContactTelephone1": "+358 88811110",
    "Distance": 0.3931721747720319,
    "DistanceUnit": 2,
    "ConnectionType": "Type2",
    "PowerKW": "22kWh",
    "Price" : 0,
    "Code": "SDL12"
  },
  {
    "ID": 31423,
    "Title": "Oulun Energian toimitalon piha",
    "AddressLine1": "Kasarmintie 6",
    "Town": "Raksila",
    "StateOrProvince": "Pohjois-Pohjanmaa",
    "Postcode": "90130",
    "CountryID": 79,
    "Latitude": 65.017505,
    "Longitude": 25.481491,
    "AccessComments": "",
    "Distance": 0.5867021584445613,
    "DistanceUnit": 2,
    "ConnectionType": "CCS",
    "PowerKW": "100kWh",
    "Price" : 30,
    "Code": "22KRW"
  },
  {
    "ID": 134557,
    "Title": "Tyrnäväntie",
    "AddressLine1": "Tyrnäväntie",
    "AddressLine2": "Limingantulli",
    "Town": "Oulu",
    "StateOrProvince": "Oulun seutukunta",
    "Postcode": "90120",
    "CountryID": 79,
    "Latitude": 64.9977160090185,
    "Longitude": 25.4578675959101,
    "Distance": 0.945433443485893,
    "DistanceUnit": 2,
    "ConnectionType": "Type2",
    "PowerKW": "22kWh",
    "Price" : 0,
    "Code": "ASD32"
  },
  {
    "ID": 31420,
    "Title": "Nissan Peugeot Seat",
    "AddressLine1": "Tyrnäväntie 7",
    "Town": "Äimärautio",
    "StateOrProvince": "Pohjois-Pohjanmaa",
    "Postcode": "90400",
    "CountryID": 79,
    "Latitude": 64.99685,
    "Longitude": 25.45798,
    "AccessComments": "",
    "Distance": 0.9971528155165518,
    "DistanceUnit": 2,
    "ConnectionType": "Type2",
    "PowerKW": "22kWh",
    "Price" : 0,
    "Code": "QWERT"
  },
  {
    "ID": 157599,
    "Title": "ABC Prisma Limingantulli",
    "AddressLine1": "Nuottasaarentie 1",
    "Town": "Äimärautio",
    "StateOrProvince": "Pohjois-Pohjanmaa",
    "Postcode": "90400",
    "CountryID": 79,
    "Latitude": 64.99615,
    "Longitude": 25.46193,
    "AccessComments": "Huoltoaseman/Prisman yhteydessä",
    "Distance": 0.9971941265626213,
    "DistanceUnit": 2,
    "ConnectionType": "CCS",
    "PowerKW": "150kWh",
    "Price" : 45,
    "Code": "WERT3"
  },
  {
    "ID": 24698,
    "Title": "ABC Prisma Limingantulli",
    "AddressLine1": "Nuottasaarentie",
    "AddressLine2": "Limingantulli",
    "Town": "Oulu",
    "StateOrProvince": "Pohjois-Pohjanmaa",
    "Postcode": "90400",
    "CountryID": 79,
    "Latitude": 64.9941428394985,
    "Longitude": 25.461836250206016,
    "Distance": 1.129933469560573,
    "DistanceUnit": 2,
    "ConnectionType": "Type2",
    "PowerKW": "22kWh",
    "Price" : 0,
    "Code": "VBD32"
  },
  {
    "ID": 31421,
    "Title": "Technopolis Sairaalaparkki Parkkihalli",
    "AddressLine1": "Kiviharjuntie 5",
    "Town": "Kontinkangas",
    "StateOrProvince": "Pohjois-Pohjanmaa",
    "Postcode": "90220",
    "CountryID": 79,
    "Latitude": 65.0094,
    "Longitude": 25.51445,
    "AccessComments": "Alinkerros, INVA paikat",
    "Distance": 1.206568682654525,
    "DistanceUnit": 2,
    "ConnectionType": "Type2",
    "PowerKW": "22kWh",
    "Price" : 0,
    "Code": "BLER1"
  },
  {
    "ID": 134559,
    "Title": "Satamatie",
    "AddressLine1": "Satamatie",
    "AddressLine2": "Toppila",
    "Town": "Oulu",
    "StateOrProvince": "Oulun seutukunta",
    "Postcode": "90520",
    "CountryID": 79,
    "Latitude": 65.0352778076126,
    "Longitude": 25.4418944419275,
    "Distance": 1.9833124183735182,
    "DistanceUnit": 2,
    "ConnectionType": "Type2",
    "PowerKW": "22kWh",
    "Price" : 0,
    "Code": "OEO22"
  },
  {
    "ID": 135130,
    "Title": "Laakeritie",
    "AddressLine1": "Laakeritie",
    "AddressLine2": "Rusko",
    "Town": "Oulu",
    "StateOrProvince": "Oulun seutukunta",
    "Postcode": "90620",
    "CountryID": 79,
    "Latitude": 65.03913063881376,
    "Longitude": 25.554032951438444,
    "Distance": 3.111847633471292,
    "DistanceUnit": 2,
    "ConnectionType": "CCS",
    "PowerKW": "50kWh",
    "Price" : 15,
    "Code": "34OFO"
  },
  {
    "ID": 31424,
    "Title": "VTT konttori Linnanmaalla",
    "AddressLine1": "Kaitoväylä 1",
    "Town": "Kaijonharju-Linnanmaa",
    "StateOrProvince": "Pohjois-Pohjanmaa",
    "Postcode": "90570",
    "CountryID": 79,
    "Latitude": 65.05661,
    "Longitude": 25.45855,
    "AccessComments": "",
    "Distance": 3.2633757401296815,
    "DistanceUnit": 2,
    "ConnectionType": "Type2",
    "PowerKW": "22kWh",
    "Price" : 0,
    "Code": "PWPWP1"
  },
  {
    "ID": 31418,
    "Title": "Delta Auto - Ensto Chago eFill",
    "AddressLine1": "Pauketie 4",
    "Town": "Kaakkuri",
    "StateOrProvince": "Pohjois-Pohjanmaa",
    "Postcode": "90410",
    "CountryID": 79,
    "Latitude": 64.96293,
    "Longitude": 25.51151,
    "AccessComments": "",
    "Distance": 3.4262219181402007,
    "DistanceUnit": 2,
    "ConnectionType": "Type2",
    "PowerKW": "22kWh",
    "Price" : 0,
    "Code": "PQP12"
  },
  {
    "ID": 72015,
    "Title": "K-Citymarket Oulu Kaakkuri",
    "AddressLine1": "Metsokankaantie 5",
    "Town": "Mäntylä",
    "StateOrProvince": "Pohjois-Pohjanmaa",
    "Postcode": "90420",
    "CountryID": 79,
    "Latitude": 64.9571822924366,
    "Longitude": 25.5284397050084,
    "AccessComments": "Ulkoparkkialue",
    "Distance": 3.977800791451202,
    "DistanceUnit": 2,
    "ConnectionType": "CCS",
    "PowerKW": "100kWh",
    "Price" : 30,
    "Code": "IRI23"
  },
  {
    "ID": 31417,
    "Title": "Pilot Business Park",
    "AddressLine1": "lentokatu 2",
    "Town": "Oulunsalo Keskus",
    "StateOrProvince": "Pohjois-Pohjanmaa",
    "Postcode": "90460",
    "CountryID": 79,
    "Latitude": 64.93118044,
    "Longitude": 25.3854529,
    "AccessComments": "",
    "Distance": 6.005709900514121,
    "DistanceUnit": 2,
    "ConnectionType": "Type2",
    "PowerKW": "22kWh",
    "Price" : 0,
    "Code": "OSDOV"
  },
  {
    "ID": 31416,
    "Title": "Oulun lentokenttä P1",
    "AddressLine1": "lentokentäntie 720",
    "Town": "Kaakkuri",
    "StateOrProvince": "Pohjois-Pohjanmaa",
    "Postcode": "90410",
    "CountryID": 79,
    "Latitude": 64.93023,
    "Longitude": 25.37464,
    "AccessComments": "",
    "Distance": 6.20539031892571,
    "DistanceUnit": 2,
    "ConnectionType": "Type2",
    "PowerKW": "22kWh",
    "Price" : 0,
    "Code": "12EEQ"
  },
  {
    "ID": 168887,
    "Title": "McDonalds Kempele",
    "AddressLine1": "Myllytie 1",
    "Town": "Kempele",
    "Postcode": "90450",
    "CountryID": 79,
    "Latitude": 64.90386049332974,
    "Longitude": 25.542823900866097,
    "Distance": 7.59765555345377,
    "DistanceUnit": 2,
    "ConnectionType": "Type2",
    "PowerKW": "22kWh",
    "Price" : 0,
    "Code": "BNK11"
  },
  {
    "ID": 31415,
    "Title": "Kempeleen Ekokortteli",
    "AddressLine1": "Koivikkohaka 9",
    "Town": "Honkanen",
    "StateOrProvince": "Pohjois-Pohjanmaa",
    "Postcode": "90450",
    "CountryID": 79,
    "Latitude": 64.90396,
    "Longitude": 25.54693,
    "AccessComments": "",
    "Distance": 7.624161458925495,
    "DistanceUnit": 2,
    "ConnectionType": "Type2",
    "PowerKW": "22kWh",
    "Price" : 0.20,
    "Code": "NKN33"
  },
  {
    "ID": 75111,
    "Title": "OSAO Haukipudas F138h",
    "AddressLine1": "Asemakyläntie 5",
    "Town": "Haukipudas Asemanseutu",
    "StateOrProvince": "Pohjois-Pohjanmaa",
    "Postcode": "90840",
    "CountryID": 79,
    "Latitude": 65.19391,
    "Longitude": 25.41201,
    "AccessComments": "Yrityksen tai yhteisön omalla parkkialueella tai -hallissa",
    "Distance": 12.846287732511147,
    "DistanceUnit": 2,
    "ConnectionType": "Type2",
    "PowerKW": "22kWh",
    "Price" : 0.20,
    "Code": "OSO14"
    
  },
  {
    "ID": 135223,
    "Title": "Hesburger Liminka",
    "AddressLine1": "Yritystie 1",
    "Town": "Liminka",
    "Postcode": "91900",
    "CountryID": 79,
    "Latitude": 64.80740637283958,
    "Longitude": 25.45862651878167,
    "AccessComments": "virta.fi membership required",
    "Distance": 13.990258737833775,
    "DistanceUnit": 2,
    "ConnectionType": "Type2",
    "PowerKW": "22kWh",
    "Price" : 0.20,
    "Code": "OKNO1"
  }
]
